[{"name":"Afsana And Aska Enterprise","address":{"label":"চিতলমারী, খুলনা, বাংলাদেশ","countryCode":"BGD","countryName":"বাংলাদেশ","state":"খুলনা","county":"বাগেরহাট","city":"চিতলমারী"},"position":{"lat":22.79184,"lng":89.87692}},{"name":"New Refrigeration","address":{"label":"Mithakhali, মংলা, বাংলাদেশ","countryCode":"BGD","countryName":"বাংলাদেশ","state":"খুলনা","county":"বাগেরহাট","city":"মংলা","district":"মীতাখালী","street":"Mithakhali"},"position":{"lat":22.46764,"lng":89.66756}},{"name":"M/S Jouty Enterprise","address":{"label":"Mongla Road, মংলা, বাংলাদেশ","countryCode":"BGD","countryName":"বাংলাদেশ","state":"খুলনা","county":"বাগেরহাট","city":"মংলা","district":"দিগরাজ","street":"Mongla Road"},"position":{"lat":22.53288,"lng":89.59026}},{"name":"Bhai Bhai Telecom","address":{"label":"Bager Hat, মোড়লগঞ্জ, খুলনা, বাংলাদেশ","countryCode":"BGD","countryName":"বাংলাদেশ","state":"খুলনা","county":"বাগেরহাট","city":"মোড়লগঞ্জ","district":"Bager Hat"},"position":{"lat":22.57244,"lng":89.95683}},{"name":"Sabinoy Telecom","address":{"label":"Bager Hat, মোড়লগঞ্জ, খুলনা, বাংলাদেশ","countryCode":"BGD","countryName":"বাংলাদেশ","state":"খুলনা","county":"বাগেরহাট","city":"মোড়লগঞ্জ","district":"Bager Hat"},"position":{"lat":22.57244,"lng":89.95683}},{"name":"Md Forid Telecom","address":{"label":"Banstali, রামপাল, বাংলাদেশ","countryCode":"BGD","countryName":"বাংলাদেশ","state":"খুলনা","county":"বাগেরহাট","city":"রামপাল","district":"বনসতলী","street":"Banstali"},"position":{"lat":22.57911,"lng":89.68475}},{"name":"M/S Mohammodia Vandar","address":{"label":"Digraj, মংলা, বাংলাদেশ","countryCode":"BGD","countryName":"বাংলাদেশ","state":"খুলনা","county":"বাগেরহাট","city":"মংলা","district":"দিগরাজ","street":"Digraj"},"position":{"lat":22.53288,"lng":89.59026}},{"name":"Vai Vai Store","address":{"label":"Jatrapur, বাগেরহাট সদর, বাংলাদেশ","countryCode":"BGD","countryName":"বাংলাদেশ","state":"খুলনা","county":"বাগেরহাট","city":"বাগেরহাট সদর","district":"যাত্রাপুর","street":"Jatrapur"},"position":{"lat":22.72263,"lng":89.74719}},{"name":"Maliha Telecom","address":{"label":"Bager Hat, মোড়লগঞ্জ, খুলনা, বাংলাদেশ","countryCode":"BGD","countryName":"বাংলাদেশ","state":"খুলনা","county":"বাগেরহাট","city":"মোড়লগঞ্জ","district":"Bager Hat"},"position":{"lat":22.57244,"lng":89.95683}},{"name":"Farhan Telecom","address":{"label":"চিতলমারী, খুলনা, বাংলাদেশ","countryCode":"BGD","countryName":"বাংলাদেশ","state":"খুলনা","county":"বাগেরহাট","city":"চিতলমারী","district":"চিতলমারী"},"position":{"lat":22.79148,"lng":89.87604}}]