{"type":"FeatureCollection","features":[{"type":"Feature","geometry":{"type":"Point","coordinates":[89.87692,22.79184]},"properties":{"name":"Afsana And Aska Enterprise"}},{"type":"Feature","geometry":{"type":"Point","coordinates":[89.66756,22.46764]},"properties":{"name":"New Refrigeration"}},{"type":"Feature","geometry":{"type":"Point","coordinates":[89.59026,22.53288]},"properties":{"name":"M/S Jouty Enterprise"}},{"type":"Feature","geometry":{"type":"Point","coordinates":[89.95683,22.57244]},"properties":{"name":"Bhai Bhai Telecom"}},{"type":"Feature","geometry":{"type":"Point","coordinates":[89.95683,22.57244]},"properties":{"name":"Sabinoy Telecom"}},{"type":"Feature","geometry":{"type":"Point","coordinates":[89.68475,22.57911]},"properties":{"name":"Md Forid Telecom"}},{"type":"Feature","geometry":{"type":"Point","coordinates":[89.59026,22.53288]},"properties":{"name":"M/S Mohammodia Vandar"}},{"type":"Feature","geometry":{"type":"Point","coordinates":[89.74719,22.72263]},"properties":{"name":"Vai Vai Store"}},{"type":"Feature","geometry":{"type":"Point","coordinates":[89.95683,22.57244]},"properties":{"name":"Maliha Telecom"}},{"type":"Feature","geometry":{"type":"Point","coordinates":[89.87604,22.79148]},"properties":{"name":"Farhan Telecom"}},{"type":"Feature","geometry":{"type":"Point","coordinates":[89.60176,22.46946]},"properties":{"name":"Ma Telecom"}},{"type":"Feature","geometry":{"type":"Point","coordinates":[89.8299,22.26376]},"properties":{"name":"Monir Store-2"}},{"type":"Feature","geometry":{"type":"Point","coordinates":[89.66756,22.46764]},"properties":{"name":"Hafizul Store"}},{"type":"Feature","geometry":{"type":"Point","coordinates":[89.77002,22.6579]},"properties":{"name":"SONAR BANGLA ELECTRONICS"}},{"type":"Feature","geometry":{"type":"Point","coordinates":[89.66661,22.58227]},"properties":{"name":"Tania Telecom"}},{"type":"Feature","geometry":{"type":"Point","coordinates":[89.71553,22.77442]},"properties":{"name":"TAJ TELECOM"}},{"type":"Feature","geometry":{"type":"Point","coordinates":[89.84862,22.31333]},"properties":{"name":"Shoaib Telecom And Medical Hall"}},{"type":"Feature","geometry":{"type":"Point","coordinates":[89.84862,22.31333]},"properties":{"name":"M/S NAIM STORE"}},{"type":"Feature","geometry":{"type":"Point","coordinates":[89.75962,22.69637]},"properties":{"name":"Anik Digital"}},{"type":"Feature","geometry":{"type":"Point","coordinates":[89.95683,22.57244]},"properties":{"name":"SHAHADAT STORE"}},{"type":"Feature","geometry":{"type":"Point","coordinates":[89.87604,22.79148]},"properties":{"name":"M/S Nafiz Telecom"}},{"type":"Feature","geometry":{"type":"Point","coordinates":[89.8299,22.26376]},"properties":{"name":"M/S YESHA STORE"}},{"type":"Feature","geometry":{"type":"Point","coordinates":[89.75962,22.69637]},"properties":{"name":"Alif Telecom"}},{"type":"Feature","geometry":{"type":"Point","coordinates":[89.95683,22.57244]},"properties":{"name":"M/S Amena Store"}},{"type":"Feature","geometry":{"type":"Point","coordinates":[89.87692,22.79184]},"properties":{"name":"Grameen Sanitation And Mudi Dokan"}},{"type":"Feature","geometry":{"type":"Point","coordinates":[89.75962,22.69637]},"properties":{"name":"Hasibul Telecom"}},{"type":"Feature","geometry":{"type":"Point","coordinates":[89.66661,22.58227]},"properties":{"name":"Moriom Telecom"}},{"type":"Feature","geometry":{"type":"Point","coordinates":[89.65318,22.5262]},"properties":{"name":"Rozina Store"}},{"type":"Feature","geometry":{"type":"Point","coordinates":[89.77002,22.6579]},"properties":{"name":"Samia Store"}},{"type":"Feature","geometry":{"type":"Point","coordinates":[89.84862,22.31333]},"properties":{"name":"Taposh Store"}},{"type":"Feature","geometry":{"type":"Point","coordinates":[89.84862,22.31333]},"properties":{"name":"SREE GURU PHARMACY"}},{"type":"Feature","geometry":{"type":"Point","coordinates":[89.77417,22.88987]},"properties":{"name":"Ohid Enterprise"}},{"type":"Feature","geometry":{"type":"Point","coordinates":[89.77002,22.6579]},"properties":{"name":"Megha Dipertmental Store"}},{"type":"Feature","geometry":{"type":"Point","coordinates":[89.71553,22.77442]},"properties":{"name":"ONI TELECOM"}},{"type":"Feature","geometry":{"type":"Point","coordinates":[89.84862,22.31333]},"properties":{"name":"Tasmin Telecom"}},{"type":"Feature","geometry":{"type":"Point","coordinates":[89.75962,22.69637]},"properties":{"name":"M/S KUNDU STORE"}},{"type":"Feature","geometry":{"type":"Point","coordinates":[89.77417,22.88987]},"properties":{"name":"Molla Store"}},{"type":"Feature","geometry":{"type":"Point","coordinates":[89.86802,22.53495]},"properties":{"name":"Imran Store"}},{"type":"Feature","geometry":{"type":"Point","coordinates":[89.87692,22.79184]},"properties":{"name":"Mowlana Telecom"}},{"type":"Feature","geometry":{"type":"Point","coordinates":[89.84244,22.70262]},"properties":{"name":"Dona Pharmacy"}},{"type":"Feature","geometry":{"type":"Point","coordinates":[89.71553,22.77442]},"properties":{"name":"HASIB MOBILE TELECOM"}},{"type":"Feature","geometry":{"type":"Point","coordinates":[89.84862,22.31333]},"properties":{"name":"Lotif Enterprise"}},{"type":"Feature","geometry":{"type":"Point","coordinates":[89.81963,22.35144]},"properties":{"name":"Ma Telecom"}},{"type":"Feature","geometry":{"type":"Point","coordinates":[89.85099,22.31219]},"properties":{"name":"MA MONI TAILORS"}},{"type":"Feature","geometry":{"type":"Point","coordinates":[89.85153,22.45358]},"properties":{"name":"M/S Kazi Enterprise"}},{"type":"Feature","geometry":{"type":"Point","coordinates":[89.86802,22.53495]},"properties":{"name":"Ali Store"}},{"type":"Feature","geometry":{"type":"Point","coordinates":[89.66661,22.58227]},"properties":{"name":"Satota Store"}},{"type":"Feature","geometry":{"type":"Point","coordinates":[89.87692,22.79184]},"properties":{"name":"AMAN TELECOM AND VARIETIES STORE"}},{"type":"Feature","geometry":{"type":"Point","coordinates":[89.71553,22.77442]},"properties":{"name":"Suprova Polli Phone"}},{"type":"Feature","geometry":{"type":"Point","coordinates":[89.77002,22.6579]},"properties":{"name":"Sharmin Store"}},{"type":"Feature","geometry":{"type":"Point","coordinates":[89.84862,22.31333]},"properties":{"name":"M/S Aat Bhai Telecom"}},{"type":"Feature","geometry":{"type":"Point","coordinates":[89.95683,22.57244]},"properties":{"name":"AL AMIN STORE"}},{"type":"Feature","geometry":{"type":"Point","coordinates":[89.66661,22.58227]},"properties":{"name":"Modern Decorator Lighting Sound And Telecom"}},{"type":"Feature","geometry":{"type":"Point","coordinates":[80.92619,26.79803]},"properties":{"name":"RIAD TELECOM"}},{"type":"Feature","geometry":{"type":"Point","coordinates":[89.84794,22.29992]},"properties":{"name":"WALIAR STORE"}},{"type":"Feature","geometry":{"type":"Point","coordinates":[89.87692,22.79184]},"properties":{"name":"KAZI ENTERPRISE"}},{"type":"Feature","geometry":{"type":"Point","coordinates":[89.87692,22.79184]},"properties":{"name":"NURJAHAN TELECOM"}},{"type":"Feature","geometry":{"type":"Point","coordinates":[89.75962,22.69637]},"properties":{"name":"MAA MEDICAL HALL"}},{"type":"Feature","geometry":{"type":"Point","coordinates":[89.75962,22.69637]},"properties":{"name":"Rana Telecom"}},{"type":"Feature","geometry":{"type":"Point","coordinates":[89.77002,22.6579]},"properties":{"name":"Samrat Store"}},{"type":"Feature","geometry":{"type":"Point","coordinates":[89.60319,22.47071]},"properties":{"name":"M/S Driste Interprice"}},{"type":"Feature","geometry":{"type":"Point","coordinates":[89.84794,22.29992]},"properties":{"name":"RESAN MOBILE SERVICING AND FLEXILOAD"}},{"type":"Feature","geometry":{"type":"Point","coordinates":[89.84244,22.70262]},"properties":{"name":"MA TELECOM"}},{"type":"Feature","geometry":{"type":"Point","coordinates":[89.95683,22.57244]},"properties":{"name":"M/S JAHID MEDICAL HALL AND LIBRARY HOUSE"}},{"type":"Feature","geometry":{"type":"Point","coordinates":[89.75962,22.69637]},"properties":{"name":"Shorna Telecom"}},{"type":"Feature","geometry":{"type":"Point","coordinates":[89.77002,22.6579]},"properties":{"name":"Banasree Cosmetics"}},{"type":"Feature","geometry":{"type":"Point","coordinates":[89.95683,22.57244]},"properties":{"name":"HALDER TELECOM"}},{"type":"Feature","geometry":{"type":"Point","coordinates":[89.84794,22.29992]},"properties":{"name":"METALI ELECTRONICS"}},{"type":"Feature","geometry":{"type":"Point","coordinates":[89.66661,22.58227]},"properties":{"name":"Kabir Telecom"}},{"type":"Feature","geometry":{"type":"Point","coordinates":[89.77002,22.6579]},"properties":{"name":"Maa Pharmacy"}},{"type":"Feature","geometry":{"type":"Point","coordinates":[89.77002,22.6579]},"properties":{"name":"Nahid Telecom"}},{"type":"Feature","geometry":{"type":"Point","coordinates":[89.95683,22.57244]},"properties":{"name":"M/S Mirajul General Store"}},{"type":"Feature","geometry":{"type":"Point","coordinates":[89.75962,22.69637]},"properties":{"name":"Baitush Sharaf Departmental Store"}},{"type":"Feature","geometry":{"type":"Point","coordinates":[89.77417,22.88987]},"properties":{"name":"Annie Telecom And Medical"}},{"type":"Feature","geometry":{"type":"Point","coordinates":[89.77002,22.6579]},"properties":{"name":"Digital Center"}},{"type":"Feature","geometry":{"type":"Point","coordinates":[89.84862,22.31333]},"properties":{"name":"Animesh Cosmetics"}},{"type":"Feature","geometry":{"type":"Point","coordinates":[89.77002,22.6579]},"properties":{"name":"SAGAR STORE"}},{"type":"Feature","geometry":{"type":"Point","coordinates":[89.87692,22.79184]},"properties":{"name":"M/S Keya Enterprise"}},{"type":"Feature","geometry":{"type":"Point","coordinates":[89.86802,22.53495]},"properties":{"name":"Aziar Store"}},{"type":"Feature","geometry":{"type":"Point","coordinates":[89.71553,22.77442]},"properties":{"name":"Pritom Telecom"}},{"type":"Feature","geometry":{"type":"Point","coordinates":[89.60435,22.47191]},"properties":{"name":"M/S Tasnuba Telecom"}},{"type":"Feature","geometry":{"type":"Point","coordinates":[89.87692,22.79184]},"properties":{"name":"Pulak Enterprise"}},{"type":"Feature","geometry":{"type":"Point","coordinates":[89.60319,22.47071]},"properties":{"name":"GAZI STORE"}},{"type":"Feature","geometry":{"type":"Point","coordinates":[89.76037,22.67147]},"properties":{"name":"KHANJAHAN ALI TELECOM"}},{"type":"Feature","geometry":{"type":"Point","coordinates":[89.75962,22.69637]},"properties":{"name":"MILON TELECOM"}},{"type":"Feature","geometry":{"type":"Point","coordinates":[89.87692,22.79184]},"properties":{"name":"Shake Pharmacy"}},{"type":"Feature","geometry":{"type":"Point","coordinates":[89.95683,22.57244]},"properties":{"name":"Maa Telecom And Varieties Store"}},{"type":"Feature","geometry":{"type":"Point","coordinates":[89.77002,22.6579]},"properties":{"name":"Borothers Telecom"}},{"type":"Feature","geometry":{"type":"Point","coordinates":[89.95683,22.57244]},"properties":{"name":"KALAM STORE"}},{"type":"Feature","geometry":{"type":"Point","coordinates":[89.75962,22.69637]},"properties":{"name":"LIMON TELECOM"}},{"type":"Feature","geometry":{"type":"Point","coordinates":[89.60319,22.47071]},"properties":{"name":"Jakir Flexi-2"}},{"type":"Feature","geometry":{"type":"Point","coordinates":[89.59026,22.53288]},"properties":{"name":"Madina Telecom"}},{"type":"Feature","geometry":{"type":"Point","coordinates":[89.60319,22.47071]},"properties":{"name":"M/S Kobir Store"}},{"type":"Feature","geometry":{"type":"Point","coordinates":[89.95683,22.57244]},"properties":{"name":"Bismillah Store"}},{"type":"Feature","geometry":{"type":"Point","coordinates":[89.77002,22.6579]},"properties":{"name":"ROY HARDWARE"}},{"type":"Feature","geometry":{"type":"Point","coordinates":[89.75962,22.69637]},"properties":{"name":"PARTHO SAROTHI ENTERPRISE"}},{"type":"Feature","geometry":{"type":"Point","coordinates":[89.60319,22.47071]},"properties":{"name":"M/S RANA TELECOM AND ELECTRONICS"}},{"type":"Feature","geometry":{"type":"Point","coordinates":[89.87604,22.79148]},"properties":{"name":"Munsi Computer And Photostat"}},{"type":"Feature","geometry":{"type":"Point","coordinates":[89.65318,22.5262]},"properties":{"name":"JOBAER TELECOM"}},{"type":"Feature","geometry":{"type":"Point","coordinates":[89.77002,22.6579]},"properties":{"name":"S M Enterprise"}}]}